[
  {
    "latitude": 16.6861337,
    "longitude": 74.2563454,
    "location_string": "Kolhapur",
    "full_address": "rajaram collage kolhapur, Vidyanagar, Old Pune Bengaluru Highway, Shivaji Park, Kolhapur, Karvir, Kolhapur, Maharashtra, 416004, India",
    "timestamp": 1756078086.846763
  },
  {
    "latitude": 18.5216239,
    "longitude": 73.8717527,
    "location_string": "Camp",
    "full_address": "signature, Camp, Babasaheb Ambedkar Marg, Somwar Peth, Pune City, Pune, Maharashtra, 411001, India",
    "timestamp": 1756078088.2375376
  },
  {
    "latitude": 18.6403548,
    "longitude": 73.7917128,
    "location_string": "Chinchwad",
    "full_address": "Chinchwad, Chatrapati Shivaji Maharaj Chowk Underpass, Chinchwad, Haveli, Pune, Maharashtra, 411019, India",
    "timestamp": 1756078090.7760587
  },
  {
    "latitude": 18.5477021,
    "longitude": 73.8643964,
    "location_string": "Bombay",
    "full_address": "Bombay Sappers, Khadki, Pune City, Pune, Maharashtra, India",
    "timestamp": 1756078093.4473338
  },
  {
    "latitude": 18.7425866,
    "longitude": 73.6366603,
    "location_string": "Vadgaon",
    "full_address": "Vadgaon, Mumbai - Pune Expressway (Toll Road), Wadgaon, Mawal, Pune, Maharashtra, 412106, India",
    "timestamp": 1756078094.6589584
  }
]